[
  {
    "id": 6,
    "name": "Ocean Seafood",
    "address": "750 N Hill St, LA, CA, USA",
    "latitude": "34.062270",
    "phone": "+1 213-687-3088",
    "longitude": "-118.239631",
    "imagePath": "https://restaurantengine.com/wp-content/uploads/2019/01/Great-Small-Restaurant-Interior-Designs.jpg"
  },
  {
    "id": 7,
    "name": "Hakkasan",
    "address": "1 Kearny St, San Francisco, CA",
    "latitude": "34.062270",
    "phone": "+1 415-829-8148",
    "longitude": "-118.239631",
    "imagePath": "http://hauteliving.com/wp-content/uploads/2014/11/Hakkasan-sf_bar.jpg"
  },
  {
    "id": 8,
    "name": "Romanov",
    "address": "12229 Ventura Blvd, Studio City, CA",
    "latitude": "34.062270",
    "phone": "+1 818 760-3177",
    "longitude": "-118.239631",
    "imagePath": "https://media-cdn.tripadvisor.com/media/photo-o/07/a9/82/16/romanov-restaurant.jpg"
  },
  {
    "id": 9,
    "name": "Beauty & Essex",
    "address": "1615 Cahuenga Blvd, Los Angeles, CA",
    "latitude": "34.062270",
    "phone": "+1 323 676-8880",
    "longitude": "-118.239631",
    "imagePath": "https://static.urbandaddy.com/uploads/assets/image/articles/standard/3aab34dfcbb7471aa387f3db341b89d2.jpg"
  },
  {
    "id": 3,
    "name": "Republique",
    "address": "624 South La Brea Ave, LA, CA, USA",
    "latitude": "34.064198",
    "phone": "+1 310-362-6115",
    "longitude": "-118.343863",
    "imagePath": "https://resizer.otstatic.com/v2/photos/large/25178655.jpg"
  },
  {
    "id": 10,
    "name": "Burger",
    "address": "Park, NY, CA",
    "latitude": "12.3123",
    "phone": "5555555",
    "longitude": "23.1312",
    "imagePath": "http://hauteliving.com/wp-content/uploads/2014/11/Hakkasan-sf_bar.jpg"
  }
]
